[
  {
    "name": "Alice M.",
    "location": "Colombo",
    "phone": "070 423####",
    "date": "Feb 2023",
    "profileImage": "src/assets/images/service_provider/workprofile1.png",
    "category": "Cleaner"
  },
  {
    "name": "Chris L.",
    "location": "Kandy",
    "phone": "070 123####",
    "date": "Oct 2019",
    "profileImage": "src/assets/images/service_provider/workprofile2.jpg",
    "category": "Chef"
  },
  {
    "name": "Ben R.",
    "location": "Matara",
    "phone": "070 432####",
    "date": "Jan 2020",
    "profileImage": "src/assets/images/service_provider/workprofile3.png",
    "category": "Painter"
  },
  {
    "name": "Mark T.",
    "location": "Batticaloa",
    "phone": "070 655####",
    "date": "Feb 2021",
    "profileImage": "src/assets/images/service_provider/workprofile4.png",
    "category": "Mechanic"
  },
  {
    "name": "Ryan D.",
    "location": "Colombo",
    "phone": "070 222####",
    "date": "Jan 2023",
    "profileImage": "src/assets/images/service_provider/workprofile5.png",
    "category": "Plumber"
  },
  {
    "name": "Lucy G.",
    "location": "Kandy",
    "phone": "070 765####",
    "date": "Mar 2021",
    "profileImage": "src/assets/images/service_provider/workprofile6.png",
    "category": "Beautician"
  },
  {
    "name": "Monica L.",
    "location": "Colombo",
    "phone": "070 234####",
    "date": "Jun 2021",
    "profileImage": "src/assets/images/service_provider/workprofile7.png",
    "category": "ChildCare"
  },
  {
    "name": "Daniel A.",
    "location": "Batticaloa",
    "phone": "070 876####",
    "date": "Sep 2021",
    "profileImage": "src/assets/images/service_provider/workprofile8.jpg",
    "category": "Driver"
  },
  {
    "name": "James T.",
    "location": "Galle",
    "phone": "070 895####",
    "date": "Nov 2021",
    "profileImage": "src/assets/images/service_provider/workprofile9.png",
    "category": "Cleaner"
  },
  {
    "name": "Tina W.",
    "location": "Kurunegala",
    "phone": "070 987####",
    "date": "Dec 2022",
    "profileImage": "src/assets/images/service_provider/workprofile10.jpg",
    "category": "Chef"
  },
  {
    "name": "Jessica F.",
    "location": "Jaffna",
    "phone": "070 564####",
    "date": "Apr 2022",
    "profileImage": "src/assets/images/service_provider/workprofile11.jpg",
    "category": "Painter"
  },
  {
    "name": "Sam W.",
    "location": "Negombo",
    "phone": "070 543####",
    "date": "Nov 2020",
    "profileImage": "src/assets/images/service_provider/workprofile12.png",
    "category": "Mechanic"
  },
  {
    "name": "Alex P.",
    "location": "Galle",
    "phone": "070 888####",
    "date": "May 2022",
    "profileImage": "src/assets/images/service_provider/workprofile13.png",
    "category": "Plumber"
  },
  {
    "name": "Sophia M.",
    "location": "Kurunegala",
    "phone": "070 432####",
    "date": "Oct 2020",
    "profileImage": "src/assets/images/service_provider/workprofile14.png",
    "category": "Beautician"
  },
  {
    "name": "Emily H.",
    "location": "Matara",
    "phone": "070 654####",
    "date": "Dec 2020",
    "profileImage": "src/assets/images/service_provider/workprofile15.png",
    "category": "ChildCare"
  },
  {
    "name": "Jack B.",
    "location": "Galle",
    "phone": "070 234####",
    "date": "Apr 2020",
    "profileImage": "src/assets/images/service_provider/workprofile16.png",
    "category": "Driver"
  }
]
